[
  {
    "id": "a1111111-1111-1111-1111-111111111111",
    "name": "San Cristóbal",
    "address": "Av. San Juan 3101, Capital Federal",
    "latitude": -34.627350,
    "longitude": -58.415940
  },
  {
    "id": "b2222222-2222-2222-2222-222222222222",
    "name": "Abasto",
    "address": "Av. Corrientes 3148, Capital Federal",
    "latitude": -34.604460,
    "longitude": -58.410660
  },
  {
    "id": "c3333333-3333-3333-3333-333333333333",
    "name": "Monserrat",
    "address": "Santiago Del Estero 446, Capital Federal",
    "latitude": -34.611200,
    "longitude": -58.384300
  },
  {
    "id": "d4444444-4444-4444-4444-444444444444",
    "name": "Centro",
    "address": "Paraná 450, Capital Federal",
    "latitude": -34.600330,
    "longitude": -58.387900
  },
  {
    "id": "e5555555-5555-5555-5555-555555555555",
    "name": "Flores",
    "address": "Av. Rivadavia 7121, Capital Federal",
    "latitude": -34.629810,
    "longitude": -58.476260
  },
  {
    "id": "f6666666-6666-6666-6666-666666666666",
    "name": "Coronel Díaz",
    "address": "Av. Coronel Díaz 1854, Capital Federal",
    "latitude": -34.588630,
    "longitude": -58.413620
  },
  {
    "id": "a7777777-7777-7777-7777-777777777777",
    "name": "Plaza San Martin",
    "address": "Marcelo T. De Alvear 670, Capital Federal",
    "latitude": -34.594260,
    "longitude": -58.378850
  },
  {
    "id": "b8888888-8888-8888-8888-888888888888",
    "name": "Quintana",
    "address": "Av. Presidente Quintana 401, Capital Federal",
    "latitude": -34.588050,
    "longitude": -58.392630
  },
  {
    "id": "c9999999-9999-9999-9999-999999999999",
    "name": "Juramento",
    "address": "Juramento 2095, Capital Federal",
    "latitude": -34.559810,
    "longitude": -58.453240
  },
  {
    "id": "d1010101-1010-1010-1010-101010101010",
    "name": "Arroyo",
    "address": "Carlos Pellegrini 1391, Capital Federal",
    "latitude": -34.596660,
    "longitude": -58.382700
  },
  {
    "id": "e1212121-1212-1212-1212-121212121212",
    "name": "Núñez",
    "address": "Av. Del Libertador 6876, Capital Federal",
    "latitude": -34.546400,
    "longitude": -58.459200
  },
  {
    "id": "f1313131-1313-1313-1313-131313131313",
    "name": "Villa Crespo",
    "address": "Av. Scalabrini Ortiz 945, Capital Federal",
    "latitude": -34.590540,
    "longitude": -58.435370
  },
  {
    "id": "a1414141-1414-1414-1414-141414141414",
    "name": "San Benito De Palermo",
    "address": "Av. Del Libertador 4600, Capital Federal",
    "latitude": -34.569770,
    "longitude": -58.426070
  },
  {
    "id": "b1515151-1515-1515-1515-151515151515",
    "name": "Mataderos Norte",
    "address": "Av. Juan Bautista Alberdi 5859, Capital Federal",
    "latitude": -34.652160,
    "longitude": -58.501100
  },
  {
    "id": "c1616161-1616-1616-1616-161616161616",
    "name": "Villa Pueyrredón",
    "address": "Av. General Mosconi 2340, Capital Federal",
    "latitude": -34.590710,
    "longitude": -58.507440
  },
  {
    "id": "d1717171-1717-1717-1717-171717171717",
    "name": "Paseo Colon",
    "address": "Av. Paseo Colon 793, Capital Federal",
    "latitude": -34.615660,
    "longitude": -58.371580
  },
  {
    "id": "e1818181-1818-1818-1818-181818181818",
    "name": "Avenida De Mayo",
    "address": "Av. De Mayo 1225, Capital Federal",
    "latitude": -34.609650,
    "longitude": -58.388370
  },
  {
    "id": "f1919191-1919-1919-1919-191919191919",
    "name": "Recoleta",
    "address": "Av. Pueyrredón 1875, Capital Federal",
    "latitude": -34.586820,
    "longitude": -58.401740
  },
  {
    "id": "a2020202-2020-2020-2020-202020202020",
    "name": "Ugarteche",
    "address": "Av. Las Heras 3799, Capital Federal",
    "latitude": -34.583390,
    "longitude": -58.406900
  },
  {
    "id": "b2121212-2121-2121-2121-212121212121",
    "name": "Plaza Grand Bourg",
    "address": "Av. Del Libertador 2196, Capital Federal",
    "latitude": -34.581530,
    "longitude": -58.389300
  },
  {
    "id": "c2222222-2222-2222-2222-222222222222",
    "name": "Caballito",
    "address": "Av. Rivadavia 5306, Capital Federal",
    "latitude": -34.618100,
    "longitude": -58.438760
  },
  {
    "id": "d2323232-2323-2323-2323-232323232323",
    "name": "Paternal",
    "address": "Av. San Martin 2800, Capital Federal",
    "latitude": -34.597650,
    "longitude": -58.474880
  },
  {
    "id": "e2424244-2424-2424-2424-242424242424",
    "name": "Diagonal Norte",
    "address": "Av. Roque Sáenz Peña 865, Capital Federal",
    "latitude": -34.605280,
    "longitude": -58.377860
  },
  {
    "id": "f2525252-2525-2525-2525-252525252525",
    "name": "Belgrano R",
    "address": "Superí 1801, Capital Federal",
    "latitude": -34.574250,
    "longitude": -58.465190
  },
  {
    "id": "a2626262-2626-2626-2626-262626262626",
    "name": "Estación Agüero",
    "address": "Av. Santa Fe 2835, Capital Federal",
    "latitude": -34.587620,
    "longitude": -58.406770
  },
  {
    "id": "b2727272-2727-2727-2727-272727272727",
    "name": "Belgrano",
    "address": "Av. Luis María Campos 1349, Capital Federal",
    "latitude": -34.571730,
    "longitude": -58.430240
  },
  {
    "id": "c2828282-2828-2828-2828-282828282828",
    "name": "Callao y Arenales",
    "address": "Av. Callao 1171, Capital Federal",
    "latitude": -34.594220,
    "longitude": -58.394650
  },
  {
    "id": "d2929292-2929-2929-2929-292929292929",
    "name": "Retiro",
    "address": "Av. Leandro N. Alem 910, Capital Federal",
    "latitude": -34.594950,
    "longitude": -58.371900
  },
  {
    "id": "e3030303-3030-3030-3030-303030303030",
    "name": "Av. Alvear",
    "address": "Av. Alvear 1331, Capital Federal",
    "latitude": -34.589900,
    "longitude": -58.395430
  },
  {
    "id": "f3131313-3131-3131-3131-313131313131",
    "name": "Microcentro Reconquista",
    "address": "Av. Corrientes 409, Microcentro",
    "latitude": -34.603160,
    "longitude": -58.373870
  },
  {
    "id": "a3232323-3232-3232-3232-323232323232",
    "name": "Parque Patricios",
    "address": "Av. Caseros 2860, Capital Federal",
    "latitude": -34.6368437,
    "longitude": -58.403369
  },
  {
    "id": "b3333333-3333-3333-3333-333333333333",
    "name": "Plaza Galicia",
    "address": "Av. Corrientes 6287, Capital Federal",
    "latitude": -34.5905728,
    "longitude": -58.448573
  },
  {
    "id": "c3434343-3434-3434-3434-343434343434",
    "name": "Casa Matriz y Anexo Torre",
    "address": "Tte. Gral. Juan D. Perón 407, Capital Federal",
    "latitude": -34.605270,
    "longitude": -58.375200
  }
]
